{
  "type": "FeatureCollection",
  "features": [
    {
      "type": "Feature",
      "properties": {
        "Name": "Villarrica",
        "lon": -71.939,
        "lat": -39.42,
        "name": "Villarrica"
      },
      "geometry": {
        "type": "Point",
        "coordinates": [
          -71.93899999999998,
          -39.419999999074285
        ]
      }
    },
    {
      "type": "Feature",
      "properties": {
        "Name": "Llaima",
        "lon": -71.733,
        "lat": -38.694,
        "name": "Llaima"
      },
      "geometry": {
        "type": "Point",
        "coordinates": [
          -71.733,
          -38.69399999907918
        ]
      }
    },
    {
      "type": "Feature",
      "properties": {
        "Name": "Calbuco",
        "lon": -72.614,
        "lat": -41.329,
        "name": "Calbuco"
      },
      "geometry": {
        "type": "Point",
        "coordinates": [
          -72.614,
          -41.32899999906429
        ]
      }
    },
    {
      "type": "Feature",
      "properties": {
        "Name": "Nevados de Chillán",
        "lon": -71.368,
        "lat": -36.871,
        "name": "Nevados de Chillán"
      },
      "geometry": {
        "type": "Point",
        "coordinates": [
          -71.36799999999998,
          -36.87099999909406
        ]
      }
    },
    {
      "type": "Feature",
      "properties": {
        "Name": "Puyehue-Cordón Caulle",
        "lon": -72.112,
        "lat": -40.585,
        "name": "Puyehue-Cordón Caulle"
      },
      "geometry": {
        "type": "Point",
        "coordinates": [
          -72.112,
          -40.584999999067705
        ]
      }
    },
    {
      "type": "Feature",
      "properties": {
        "Name": "Osorno",
        "lon": -72.499,
        "lat": -41.102,
        "name": "Osorno"
      },
      "geometry": {
        "type": "Point",
        "coordinates": [
          -72.49899999999998,
          -41.10199999906526
        ]
      }
    },
    {
      "type": "Feature",
      "properties": {
        "Name": "Mocho-Choshuenco",
        "lon": -72.03,
        "lat": -39.93,
        "name": "Mocho-Choshuenco"
      },
      "geometry": {
        "type": "Point",
        "coordinates": [
          -72.03,
          -39.92999999907122
        ]
      }
    },
    {
      "type": "Feature",
      "properties": {
        "Name": "Antuco",
        "lon": -71.351,
        "lat": -37.41,
        "name": "Antuco"
      },
      "geometry": {
        "type": "Point",
        "coordinates": [
          -71.351,
          -37.40999999908927
        ]
      }
    },
    {
      "type": "Feature",
      "properties": {
        "Name": "Carrán-Los Venados",
        "lon": -72.073,
        "lat": -40.366,
        "name": "Carrán-Los Venados"
      },
      "geometry": {
        "type": "Point",
        "coordinates": [
          -72.073,
          -40.36599999906883
        ]
      }
    },
    {
      "type": "Feature",
      "properties": {
        "Name": "Cerro Azul-Quizapu",
        "lon": -70.759,
        "lat": -35.654,
        "name": "Cerro Azul-Quizapu"
      },
      "geometry": {
        "type": "Point",
        "coordinates": [
          -70.759,
          -35.653999999106034
        ]
      }
    },
    {
      "type": "Feature",
      "properties": {
        "Name": "Chaitén",
        "lon": -72.65,
        "lat": -42.837,
        "name": "Chaitén"
      },
      "geometry": {
        "type": "Point",
        "coordinates": [
          -72.65,
          -42.83699999905934
        ]
      }
    },
    {
      "type": "Feature",
      "properties": {
        "Name": "Lonquimay",
        "lon": -71.589,
        "lat": -38.379,
        "name": "Lonquimay"
      },
      "geometry": {
        "type": "Point",
        "coordinates": [
          -71.589,
          -38.37899999908149
        ]
      }
    },
    {
      "type": "Feature",
      "properties": {
        "Name": "Hudson",
        "lon": -72.97,
        "lat": -45.9,
        "name": "Hudson"
      },
      "geometry": {
        "type": "Point",
        "coordinates": [
          -72.97,
          -45.899999999057286
        ]
      }
    },
    {
      "type": "Feature",
      "properties": {
        "Name": "Láscar",
        "lon": -67.731,
        "lat": -23.363,
        "name": "Láscar"
      },
      "geometry": {
        "type": "Point",
        "coordinates": [
          -67.73099999999998,
          -23.36299999931245
        ]
      }
    },
    {
      "type": "Feature",
      "properties": {
        "Name": "Michinmahuida",
        "lon": -72.445,
        "lat": -42.798,
        "name": "Michinmahuida"
      },
      "geometry": {
        "type": "Point",
        "coordinates": [
          -72.445,
          -42.797999999059414
        ]
      }
    },
    {
      "type": "Feature",
      "properties": {
        "Name": "Yate",
        "lon": -72.4,
        "lat": -41.759,
        "name": "Yate"
      },
      "geometry": {
        "type": "Point",
        "coordinates": [
          -72.4,
          -41.75899999906262
        ]
      }
    },
    {
      "type": "Feature",
      "properties": {
        "Name": "Sollipulli",
        "lon": -71.519,
        "lat": -38.977,
        "name": "Sollipulli"
      },
      "geometry": {
        "type": "Point",
        "coordinates": [
          -71.519,
          -38.97699999907722
        ]
      }
    },
    {
      "type": "Feature",
      "properties": {
        "Name": "Copahue",
        "lon": -71.17,
        "lat": -37.85,
        "name": "Copahue"
      },
      "geometry": {
        "type": "Point",
        "coordinates": [
          -71.17,
          -37.84999999908562
        ]
      }
    },
    {
      "type": "Feature",
      "properties": {
        "Name": "Grupo Descabezado Grande",
        "lon": -70.751,
        "lat": -35.586,
        "name": "Grupo Descabezado Grande"
      },
      "geometry": {
        "type": "Point",
        "coordinates": [
          -70.751,
          -35.58599999910675
        ]
      }
    },
    {
      "type": "Feature",
      "properties": {
        "Name": "Callaqui",
        "lon": -71.446,
        "lat": -37.926,
        "name": "Callaqui"
      },
      "geometry": {
        "type": "Point",
        "coordinates": [
          -71.446,
          -37.92599999908501
        ]
      }
    },
    {
      "type": "Feature",
      "properties": {
        "Name": "Quetrupillán",
        "lon": -71.717,
        "lat": -39.498,
        "name": "Quetrupillán"
      },
      "geometry": {
        "type": "Point",
        "coordinates": [
          -71.717,
          -39.49799999907382
        ]
      }
    },
    {
      "type": "Feature",
      "properties": {
        "Name": "Parinacota",
        "lon": -69.143,
        "lat": -18.164,
        "name": "Parinacota"
      },
      "geometry": {
        "type": "Point",
        "coordinates": [
          -69.143,
          -18.163999999440474
        ]
      }
    },
    {
      "type": "Feature",
      "properties": {
        "Name": "Planchón - Peteroa",
        "lon": -70.574,
        "lat": -35.241,
        "name": "Planchón - Peteroa"
      },
      "geometry": {
        "type": "Point",
        "coordinates": [
          -70.57399999999998,
          -35.24099999911047
        ]
      }
    },
    {
      "type": "Feature",
      "properties": {
        "Name": "Hornopirén",
        "lon": -72.431,
        "lat": -41.876,
        "name": "Hornopirén"
      },
      "geometry": {
        "type": "Point",
        "coordinates": [
          -72.431,
          -41.8759999990622
        ]
      }
    },
    {
      "type": "Feature",
      "properties": {
        "Name": "Lanín",
        "lon": -71.501,
        "lat": -39.639,
        "name": "Lanín"
      },
      "geometry": {
        "type": "Point",
        "coordinates": [
          -71.50099999999999,
          -39.63899999907294
        ]
      }
    },
    {
      "type": "Feature",
      "properties": {
        "Name": "Complejo Antillanca",
        "lon": -72.155,
        "lat": -40.776,
        "name": "Complejo Antillanca"
      },
      "geometry": {
        "type": "Point",
        "coordinates": [
          -72.15499999999999,
          -40.77599999906676
        ]
      }
    },
    {
      "type": "Feature",
      "properties": {
        "Name": "Laguna del Maule",
        "lon": -70.507,
        "lat": -36.058,
        "name": "Laguna del Maule"
      },
      "geometry": {
        "type": "Point",
        "coordinates": [
          -70.507,
          -36.05799999910189
        ]
      }
    },
    {
      "type": "Feature",
      "properties": {
        "Name": "Melimoyu",
        "lon": -72.868,
        "lat": -44.072,
        "name": "Melimoyu"
      },
      "geometry": {
        "type": "Point",
        "coordinates": [
          -72.868,
          -44.07199999905721
        ]
      }
    },
    {
      "type": "Feature",
      "properties": {
        "Name": "Tupungatito",
        "lon": -69.802,
        "lat": -33.401,
        "name": "Tupungatito"
      },
      "geometry": {
        "type": "Point",
        "coordinates": [
          -69.80199999999999,
          -33.40099999913246
        ]
      }
    },
    {
      "type": "Feature",
      "properties": {
        "Name": "Guallatiri",
        "lon": -69.089,
        "lat": -18.423,
        "name": "Guallatiri"
      },
      "geometry": {
        "type": "Point",
        "coordinates": [
          -69.089,
          -18.422999999433607
        ]
      }
    },
    {
      "type": "Feature",
      "properties": {
        "Name": "Maipo",
        "lon": -69.828,
        "lat": -34.166,
        "name": "Maipo"
      },
      "geometry": {
        "type": "Point",
        "coordinates": [
          -69.828,
          -34.16599999912286
        ]
      }
    },
    {
      "type": "Feature",
      "properties": {
        "Name": "San José",
        "lon": -69.894,
        "lat": -33.79,
        "name": "San José"
      },
      "geometry": {
        "type": "Point",
        "coordinates": [
          -69.894,
          -33.78999999912749
        ]
      }
    },
    {
      "type": "Feature",
      "properties": {
        "Name": "Apagado o Huailahué",
        "lon": -72.589,
        "lat": -41.884,
        "name": "Apagado o Huailahué"
      },
      "geometry": {
        "type": "Point",
        "coordinates": [
          -72.589,
          -41.883999999062176
        ]
      }
    },
    {
      "type": "Feature",
      "properties": {
        "Name": "Puntiagudo-Cordón Cenizos",
        "lon": -72.269,
        "lat": -40.973,
        "name": "Puntiagudo-Cordón Cenizos"
      },
      "geometry": {
        "type": "Point",
        "coordinates": [
          -72.269,
          -40.97299999906586
        ]
      }
    },
    {
      "type": "Feature",
      "properties": {
        "Name": "Isla Decepción",
        "lon": -60.637,
        "lat": -62.959,
        "name": "Isla Decepción"
      },
      "geometry": {
        "type": "Point",
        "coordinates": [
          -60.637,
          -62.958999999236866
        ]
      }
    },
    {
      "type": "Feature",
      "properties": {
        "Name": "Monte Burney",
        "lon": -73.379,
        "lat": -52.326,
        "name": "Monte Burney"
      },
      "geometry": {
        "type": "Point",
        "coordinates": [
          -73.379,
          -52.32599999908782
        ]
      }
    },
    {
      "type": "Feature",
      "properties": {
        "Name": "Taapaca",
        "lon": -69.509,
        "lat": -18.112,
        "name": "Taapaca"
      },
      "geometry": {
        "type": "Point",
        "coordinates": [
          -69.509,
          -18.111999999441846
        ]
      }
    },
    {
      "type": "Feature",
      "properties": {
        "Name": "Huequi",
        "lon": -72.579,
        "lat": -42.379,
        "name": "Huequi"
      },
      "geometry": {
        "type": "Point",
        "coordinates": [
          -72.57899999999998,
          -42.37899999906055
        ]
      }
    },
    {
      "type": "Feature",
      "properties": {
        "Name": "Mentolat",
        "lon": -73.079,
        "lat": -44.695,
        "name": "Mentolat"
      },
      "geometry": {
        "type": "Point",
        "coordinates": [
          -73.079,
          -44.6949999990568
        ]
      }
    },
    {
      "type": "Feature",
      "properties": {
        "Name": "Nevado de Longaví",
        "lon": -71.164,
        "lat": -36.199,
        "name": "Nevado de Longaví"
      },
      "geometry": {
        "type": "Point",
        "coordinates": [
          -71.164,
          -36.19899999910047
        ]
      }
    },
    {
      "type": "Feature",
      "properties": {
        "Name": "San Pedro",
        "lon": -68.391,
        "lat": -21.888,
        "name": "San Pedro"
      },
      "geometry": {
        "type": "Point",
        "coordinates": [
          -68.391,
          -21.88799999934664
        ]
      }
    },
    {
      "type": "Feature",
      "properties": {
        "Name": "Tacora",
        "lon": -69.773,
        "lat": -17.721,
        "name": "Tacora"
      },
      "geometry": {
        "type": "Point",
        "coordinates": [
          -69.77300000000001,
          -17.72099999945228
        ]
      }
    },
    {
      "type": "Feature",
      "properties": {
        "Name": "Reclus",
        "lon": -73.582,
        "lat": -50.936,
        "name": "Reclus"
      },
      "geometry": {
        "type": "Point",
        "coordinates": [
          -73.58199999999998,
          -50.93600000000001
        ]
      }
    },
    {
      "type": "Feature",
      "properties": {
        "Name": "Macá",
        "lon": -73.164,
        "lat": -45.104,
        "name": "Macá"
      },
      "geometry": {
        "type": "Point",
        "coordinates": [
          -73.164,
          -45.10399999905676
        ]
      }
    },
    {
      "type": "Feature",
      "properties": {
        "Name": "Yanteles",
        "lon": -72.814,
        "lat": -43.5,
        "name": "Yanteles"
      },
      "geometry": {
        "type": "Point",
        "coordinates": [
          -72.81399999999998,
          -43.49999999905797
        ]
      }
    },
    {
      "type": "Feature",
      "properties": {
        "Name": "Isla de Pascua",
        "lon": -109.367,
        "lat": -27.114,
        "name": "Isla de Pascua"
      },
      "geometry": {
        "type": "Point",
        "coordinates": [
          -109.367,
          -27.113999999233954
        ]
      }
    },
    {
      "type": "Feature",
      "properties": {
        "Name": "Irruputuncu",
        "lon": -68.56,
        "lat": -20.732,
        "name": "Irruputuncu"
      },
      "geometry": {
        "type": "Point",
        "coordinates": [
          -68.56,
          -20.73199999937465
        ]
      }
    },
    {
      "type": "Feature",
      "properties": {
        "Name": "Corcovado",
        "lon": -72.794,
        "lat": -43.194,
        "name": "Corcovado"
      },
      "geometry": {
        "type": "Point",
        "coordinates": [
          -72.794,
          -43.19399999905854
        ]
      }
    },
    {
      "type": "Feature",
      "properties": {
        "Name": "Olca-Paruma",
        "lon": -68.504,
        "lat": -20.942,
        "name": "Olca-Paruma"
      },
      "geometry": {
        "type": "Point",
        "coordinates": [
          -68.504,
          -20.941999999369486
        ]
      }
    },
    {
      "type": "Feature",
      "properties": {
        "Name": "Lautaro",
        "lon": -73.506,
        "lat": -49.02,
        "name": "Lautaro"
      },
      "geometry": {
        "type": "Point",
        "coordinates": [
          -73.506,
          -49.01999999906627
        ]
      }
    },
    {
      "type": "Feature",
      "properties": {
        "Name": "Fui",
        "lon": -71.928,
        "lat": -39.901,
        "name": "Fui"
      },
      "geometry": {
        "type": "Point",
        "coordinates": [
          -71.92799999999998,
          -39.90099999907141
        ]
      }
    },
    {
      "type": "Feature",
      "properties": {
        "Name": "Tatara-San Pedro",
        "lon": -70.855,
        "lat": -35.992,
        "name": "Tatara-San Pedro"
      },
      "geometry": {
        "type": "Point",
        "coordinates": [
          -70.855,
          -35.99199999910255
        ]
      }
    },
    {
      "type": "Feature",
      "properties": {
        "Name": "Cayutue-Ralún- Viguería",
        "lon": -72.28,
        "lat": -41.253,
        "name": "Cayutue-Ralún- Viguería"
      },
      "geometry": {
        "type": "Point",
        "coordinates": [
          -72.28,
          -41.25299999906461
        ]
      }
    },
    {
      "type": "Feature",
      "properties": {
        "Name": "Tolhuaca",
        "lon": -71.646,
        "lat": -38.314,
        "name": "Tolhuaca"
      },
      "geometry": {
        "type": "Point",
        "coordinates": [
          -71.646,
          -38.31399999908198
        ]
      }
    },
    {
      "type": "Feature",
      "properties": {
        "Name": "Grupo Volcánico Aysén",
        "lon": -73.076,
        "lat": -45.371,
        "name": "Grupo Volcánico Aysén"
      },
      "geometry": {
        "type": "Point",
        "coordinates": [
          -73.0757,
          -45.37099999905687
        ]
      }
    },
    {
      "type": "Feature",
      "properties": {
        "Name": "Tinguiririca",
        "lon": -70.34,
        "lat": -34.817,
        "name": "Tinguiririca"
      },
      "geometry": {
        "type": "Point",
        "coordinates": [
          -70.34,
          -34.8169999991152
        ]
      }
    },
    {
      "type": "Feature",
      "properties": {
        "Name": "Socompa",
        "lon": -68.246,
        "lat": -24.396,
        "name": "Socompa"
      },
      "geometry": {
        "type": "Point",
        "coordinates": [
          -68.246,
          -24.395999999289593
        ]
      }
    },
    {
      "type": "Feature",
      "properties": {
        "Name": "Grupo Puyuhuapi",
        "lon": -72.534,
        "lat": -44.3,
        "name": "Grupo Puyuhuapi"
      },
      "geometry": {
        "type": "Point",
        "coordinates": [
          -72.534,
          -44.29999999905699
        ]
      }
    },
    {
      "type": "Feature",
      "properties": {
        "Name": "Isluga",
        "lon": -68.82,
        "lat": -19.155,
        "name": "Isluga"
      },
      "geometry": {
        "type": "Point",
        "coordinates": [
          -68.82,
          -19.15499999941451
        ]
      }
    },
    {
      "type": "Feature",
      "properties": {
        "Name": "Ollagüe",
        "lon": -68.18,
        "lat": -21.306,
        "name": "Ollagüe"
      },
      "geometry": {
        "type": "Point",
        "coordinates": [
          -68.18,
          -21.305999999360612
        ]
      }
    },
    {
      "type": "Feature",
      "properties": {
        "Name": "Alto Palena",
        "lon": -72.35,
        "lat": -43.65,
        "name": "Alto Palena"
      },
      "geometry": {
        "type": "Point",
        "coordinates": [
          -72.34999999999998,
          -43.64999999905773
        ]
      }
    },
    {
      "type": "Feature",
      "properties": {
        "Name": "Grupo Caburgua",
        "lon": -71.729,
        "lat": -39.265,
        "name": "Grupo Caburgua"
      },
      "geometry": {
        "type": "Point",
        "coordinates": [
          -71.729,
          -39.26499999907529
        ]
      }
    },
    {
      "type": "Feature",
      "properties": {
        "Name": "Barranco Colorado",
        "lon": -72.482,
        "lat": -42.399,
        "name": "Barranco Colorado"
      },
      "geometry": {
        "type": "Point",
        "coordinates": [
          -72.48168599999998,
          -42.3994209990605
        ]
      }
    },
    {
      "type": "Feature",
      "properties": {
        "Name": "Lastarria",
        "lon": -68.507,
        "lat": -25.168,
        "name": "Lastarria"
      },
      "geometry": {
        "type": "Point",
        "coordinates": [
          -68.50699999999999,
          -25.167999999273125
        ]
      }
    },
    {
      "type": "Feature",
      "properties": {
        "Name": "Cay",
        "lon": -72.988,
        "lat": -45.058,
        "name": "Cay"
      },
      "geometry": {
        "type": "Point",
        "coordinates": [
          -72.988,
          -45.05799999905678
        ]
      }
    },
    {
      "type": "Feature",
      "properties": {
        "Name": "Grupo Pali-Aike",
        "lon": -70.1,
        "lat": -52.0,
        "name": "Grupo Pali-Aike"
      },
      "geometry": {
        "type": "Point",
        "coordinates": [
          -70.1,
          -51.99999999908517
        ]
      }
    },
    {
      "type": "Feature",
      "properties": {
        "Name": "Palomo",
        "lon": -70.302,
        "lat": -34.613,
        "name": "Palomo"
      },
      "geometry": {
        "type": "Point",
        "coordinates": [
          -70.302,
          -34.61299999911758
        ]
      }
    },
    {
      "type": "Feature",
      "properties": {
        "Name": "Aguilera",
        "lon": -73.75,
        "lat": -50.33,
        "name": "Aguilera"
      },
      "geometry": {
        "type": "Point",
        "coordinates": [
          -73.74999999999999,
          -50.32999999907334
        ]
      }
    },
    {
      "type": "Feature",
      "properties": {
        "Name": "Licancabur",
        "lon": -67.884,
        "lat": -22.834,
        "name": "Licancabur"
      },
      "geometry": {
        "type": "Point",
        "coordinates": [
          -67.884,
          -22.833999999324508
        ]
      }
    },
    {
      "type": "Feature",
      "properties": {
        "Name": "Aucanquilcha",
        "lon": -68.469,
        "lat": -21.221,
        "name": "Aucanquilcha"
      },
      "geometry": {
        "type": "Point",
        "coordinates": [
          -68.469,
          -21.220999999362675
        ]
      }
    },
    {
      "type": "Feature",
      "properties": {
        "Name": "Fueguino o Cook",
        "lon": -70.25,
        "lat": -54.95,
        "name": "Fueguino o Cook"
      },
      "geometry": {
        "type": "Point",
        "coordinates": [
          -70.25,
          -54.94999999911359
        ]
      }
    },
    {
      "type": "Feature",
      "properties": {
        "Name": "Descabezado Chico",
        "lon": -70.62,
        "lat": -35.515,
        "name": "Descabezado Chico"
      },
      "geometry": {
        "type": "Point",
        "coordinates": [
          -70.62,
          -35.5149999991075
        ]
      }
    },
    {
      "type": "Feature",
      "properties": {
        "Name": "Cerro del Medio",
        "lon": -70.5,
        "lat": -35.57,
        "name": "Cerro del Medio"
      },
      "geometry": {
        "type": "Point",
        "coordinates": [
          -70.5,
          -35.569999999106926
        ]
      }
    },
    {
      "type": "Feature",
      "properties": {
        "Name": "Colachi",
        "lon": -67.646,
        "lat": -23.241,
        "name": "Colachi"
      },
      "geometry": {
        "type": "Point",
        "coordinates": [
          -67.646,
          -23.240999999315207
        ]
      }
    },
    {
      "type": "Feature",
      "properties": {
        "Name": "Ojos del Salado",
        "lon": -68.541,
        "lat": -27.11,
        "name": "Ojos del Salado"
      },
      "geometry": {
        "type": "Point",
        "coordinates": [
          -68.541,
          -27.109999999234034
        ]
      }
    },
    {
      "type": "Feature",
      "properties": {
        "Name": "Apacheta-Aguilucho",
        "lon": -68.202,
        "lat": -21.829,
        "name": "Apacheta-Aguilucho"
      },
      "geometry": {
        "type": "Point",
        "coordinates": [
          -68.202,
          -21.828999999348046
        ]
      }
    },
    {
      "type": "Feature",
      "properties": {
        "Name": "Escalante-Sairecabur",
        "lon": -67.891,
        "lat": -22.719,
        "name": "Escalante-Sairecabur"
      },
      "geometry": {
        "type": "Point",
        "coordinates": [
          -67.891,
          -22.71899999932716
        ]
      }
    },
    {
      "type": "Feature",
      "properties": {
        "Name": "Putana",
        "lon": -67.853,
        "lat": -22.557,
        "name": "Putana"
      },
      "geometry": {
        "type": "Point",
        "coordinates": [
          -67.853,
          -22.55699999933091
        ]
      }
    },
    {
      "type": "Feature",
      "properties": {
        "Name": "Chascón  (Purico )",
        "lon": -67.688,
        "lat": -23.011,
        "name": "Chascón  (Purico )"
      },
      "geometry": {
        "type": "Point",
        "coordinates": [
          -67.68799999999999,
          -23.010999999320443
        ]
      }
    },
    {
      "type": "Feature",
      "properties": {
        "Name": "Puntas Negras",
        "lon": -67.54,
        "lat": -23.744,
        "name": "Puntas Negras"
      },
      "geometry": {
        "type": "Point",
        "coordinates": [
          -67.54,
          -23.743999999303927
        ]
      }
    },
    {
      "type": "Feature",
      "properties": {
        "Name": "Púlar-Pajonales",
        "lon": -68.066,
        "lat": -24.2,
        "name": "Púlar-Pajonales"
      },
      "geometry": {
        "type": "Point",
        "coordinates": [
          -68.06599999999999,
          -24.199999999293862
        ]
      }
    },
    {
      "type": "Feature",
      "properties": {
        "Name": "Nevado Tres Cruces",
        "lon": -68.778,
        "lat": -27.098,
        "name": "Nevado Tres Cruces"
      },
      "geometry": {
        "type": "Point",
        "coordinates": [
          -68.77799999999999,
          -27.09799999923427
        ]
      }
    },
    {
      "type": "Feature",
      "properties": {
        "Name": "Chiliques",
        "lon": -67.701,
        "lat": -23.578,
        "name": "Chiliques"
      },
      "geometry": {
        "type": "Point",
        "coordinates": [
          -67.701,
          -23.57799999930762
        ]
      }
    },
    {
      "type": "Feature",
      "properties": {
        "Name": "Caichinque",
        "lon": -67.74,
        "lat": -23.949,
        "name": "Caichinque"
      },
      "geometry": {
        "type": "Point",
        "coordinates": [
          -67.74,
          -23.94899999929939
        ]
      }
    },
    {
      "type": "Feature",
      "properties": {
        "Name": "Nevado de Incahuasi",
        "lon": -68.296,
        "lat": -27.034,
        "name": "Nevado de Incahuasi"
      },
      "geometry": {
        "type": "Point",
        "coordinates": [
          -68.29599999999999,
          -27.033999999235512
        ]
      }
    },
    {
      "type": "Feature",
      "properties": {
        "Name": "Palvitad",
        "lon": -72.75,
        "lat": -43.11,
        "name": "Palvitad"
      },
      "geometry": {
        "type": "Point",
        "coordinates": [
          -72.74999999999999,
          -43.11
        ]
      }
    },
    {
      "type": "Feature",
      "properties": {
        "Name": "Acamarachi",
        "lon": -67.618,
        "lat": -23.292,
        "name": "Acamarachi"
      },
      "geometry": {
        "type": "Point",
        "coordinates": [
          -67.618,
          -23.291999999314058
        ]
      }
    },
    {
      "type": "Feature",
      "properties": {
        "Name": "Llullaillaco",
        "lon": -68.537,
        "lat": -24.72,
        "name": "Llullaillaco"
      },
      "geometry": {
        "type": "Point",
        "coordinates": [
          -68.537,
          -24.719999999282614
        ]
      }
    },
    {
      "type": "Feature",
      "properties": {
        "Name": "Alítar",
        "lon": -67.655,
        "lat": -23.148,
        "name": "Alítar"
      },
      "geometry": {
        "type": "Point",
        "coordinates": [
          -67.655,
          -23.147999999317317
        ]
      }
    },
    {
      "type": "Feature",
      "properties": {
        "Name": "Cerro Bayo",
        "lon": -68.588,
        "lat": -25.414,
        "name": "Cerro Bayo"
      },
      "geometry": {
        "type": "Point",
        "coordinates": [
          -68.588,
          -25.413999999267975
        ]
      }
    },
    {
      "type": "Feature",
      "properties": {
        "Name": "Cordón del Azufre",
        "lon": -68.522,
        "lat": -25.336,
        "name": "Cordón del Azufre"
      },
      "geometry": {
        "type": "Point",
        "coordinates": [
          -68.52199999999999,
          -25.33599999926961
        ]
      }
    },
    {
      "type": "Feature",
      "properties": {
        "Name": "Sierra Nevada",
        "lon": -68.58,
        "lat": -26.481,
        "name": "Sierra Nevada"
      },
      "geometry": {
        "type": "Point",
        "coordinates": [
          -68.58,
          -26.480999999246322
        ]
      }
    }
  ]
}