{
  "type": "FeatureCollection",
  "name": "volcanes_OVDAS",
  "crs": {
    "type": "name",
    "properties": {
      "name": "urn:ogc:def:crs:OGC:1.3:CRS84"
    }
  },
  "features": [
    {
      "type": "Feature",
      "properties": {
        "Name": "Villarrica",
        "lon": -71.939,
        "lat": -39.42,
        "Monit": "Sí",
        "name": "Villarrica"
      },
      "geometry": {
        "type": "Point",
        "coordinates": [
          -71.939,
          -39.4199999990743,
          0.0
        ]
      }
    },
    {
      "type": "Feature",
      "properties": {
        "Name": "Llaima",
        "lon": -71.733,
        "lat": -38.694,
        "Monit": "Sí",
        "name": "Llaima"
      },
      "geometry": {
        "type": "Point",
        "coordinates": [
          -71.733,
          -38.69399999907918,
          0.0
        ]
      }
    },
    {
      "type": "Feature",
      "properties": {
        "Name": "Calbuco",
        "lon": -72.614,
        "lat": -41.329,
        "Monit": "Sí",
        "name": "Calbuco"
      },
      "geometry": {
        "type": "Point",
        "coordinates": [
          -72.614,
          -41.32899999906429,
          0.0
        ]
      }
    },
    {
      "type": "Feature",
      "properties": {
        "Name": "Nevados de Chillán",
        "lon": -71.368,
        "lat": -36.871,
        "Monit": "Sí",
        "name": "Nevados de Chillán"
      },
      "geometry": {
        "type": "Point",
        "coordinates": [
          -71.368,
          -36.87099999909406,
          0.0
        ]
      }
    },
    {
      "type": "Feature",
      "properties": {
        "Name": "Puyehue-Cordón Caulle",
        "lon": -72.112,
        "lat": -40.585,
        "Monit": "Sí",
        "name": "Puyehue-Cordón Caulle"
      },
      "geometry": {
        "type": "Point",
        "coordinates": [
          -72.112,
          -40.58499999906771,
          0.0
        ]
      }
    },
    {
      "type": "Feature",
      "properties": {
        "Name": "Osorno",
        "lon": -72.499,
        "lat": -41.102,
        "Monit": "Sí",
        "name": "Osorno"
      },
      "geometry": {
        "type": "Point",
        "coordinates": [
          -72.499,
          -41.10199999906526,
          0.0
        ]
      }
    },
    {
      "type": "Feature",
      "properties": {
        "Name": "Mocho-Choshuenco",
        "lon": -72.03,
        "lat": -39.93,
        "Monit": "Sí",
        "name": "Mocho-Choshuenco"
      },
      "geometry": {
        "type": "Point",
        "coordinates": [
          -72.03,
          -39.92999999907122,
          0.0
        ]
      }
    },
    {
      "type": "Feature",
      "properties": {
        "Name": "Antuco",
        "lon": -71.351,
        "lat": -37.41,
        "Monit": "Sí",
        "name": "Antuco"
      },
      "geometry": {
        "type": "Point",
        "coordinates": [
          -71.351,
          -37.40999999908927,
          0.0
        ]
      }
    },
    {
      "type": "Feature",
      "properties": {
        "Name": "Carrán-Los Venados",
        "lon": -72.073,
        "lat": -40.366,
        "Monit": "Sí",
        "name": "Carrán-Los Venados"
      },
      "geometry": {
        "type": "Point",
        "coordinates": [
          -72.073,
          -40.36599999906883,
          0.0
        ]
      }
    },
    {
      "type": "Feature",
      "properties": {
        "Name": "Chaitén",
        "lon": -72.65,
        "lat": -42.837,
        "Monit": "Sí",
        "name": "Chaitén"
      },
      "geometry": {
        "type": "Point",
        "coordinates": [
          -72.65,
          -42.83699999905934,
          0.0
        ]
      }
    },
    {
      "type": "Feature",
      "properties": {
        "Name": "Lonquimay",
        "lon": -71.589,
        "lat": -38.379,
        "Monit": "Sí",
        "name": "Lonquimay"
      },
      "geometry": {
        "type": "Point",
        "coordinates": [
          -71.589,
          -38.37899999908149,
          0.0
        ]
      }
    },
    {
      "type": "Feature",
      "properties": {
        "Name": "Hudson",
        "lon": -72.97,
        "lat": -45.9,
        "Monit": "Sí",
        "name": "Hudson"
      },
      "geometry": {
        "type": "Point",
        "coordinates": [
          -72.97,
          -45.89999999905729,
          0.0
        ]
      }
    },
    {
      "type": "Feature",
      "properties": {
        "Name": "Láscar",
        "lon": -67.731,
        "lat": -23.363,
        "Monit": "Sí",
        "name": "Láscar"
      },
      "geometry": {
        "type": "Point",
        "coordinates": [
          -67.731,
          -23.36299999931245,
          0.0
        ]
      }
    },
    {
      "type": "Feature",
      "properties": {
        "Name": "Michinmahuida",
        "lon": -72.445,
        "lat": -42.798,
        "Monit": "Sí",
        "name": "Michinmahuida"
      },
      "geometry": {
        "type": "Point",
        "coordinates": [
          -72.445,
          -42.79799999905943,
          0.0
        ]
      }
    },
    {
      "type": "Feature",
      "properties": {
        "Name": "Yate",
        "lon": -72.4,
        "lat": -41.759,
        "Monit": "Sí",
        "name": "Yate"
      },
      "geometry": {
        "type": "Point",
        "coordinates": [
          -72.4,
          -41.75899999906262,
          0.0
        ]
      }
    },
    {
      "type": "Feature",
      "properties": {
        "Name": "Sollipulli",
        "lon": -71.519,
        "lat": -38.977,
        "Monit": "Sí",
        "name": "Sollipulli"
      },
      "geometry": {
        "type": "Point",
        "coordinates": [
          -71.519,
          -38.97699999907722,
          0.0
        ]
      }
    },
    {
      "type": "Feature",
      "properties": {
        "Name": "Copahue",
        "lon": -71.17,
        "lat": -37.85,
        "Monit": "Sí",
        "name": "Copahue"
      },
      "geometry": {
        "type": "Point",
        "coordinates": [
          -71.17,
          -37.84999999908562,
          0.0
        ]
      }
    },
    {
      "type": "Feature",
      "properties": {
        "Name": "Grupo Descabezado Grande",
        "lon": -70.751,
        "lat": -35.586,
        "Monit": "Sí",
        "name": "Grupo Descabezado Grande"
      },
      "geometry": {
        "type": "Point",
        "coordinates": [
          -70.751,
          -35.58599999910675,
          0.0
        ]
      }
    },
    {
      "type": "Feature",
      "properties": {
        "Name": "Callaqui",
        "lon": -71.446,
        "lat": -37.926,
        "Monit": "Sí",
        "name": "Callaqui"
      },
      "geometry": {
        "type": "Point",
        "coordinates": [
          -71.446,
          -37.92599999908501,
          0.0
        ]
      }
    },
    {
      "type": "Feature",
      "properties": {
        "Name": "Quetrupillán",
        "lon": -71.717,
        "lat": -39.498,
        "Monit": "Sí",
        "name": "Quetrupillán"
      },
      "geometry": {
        "type": "Point",
        "coordinates": [
          -71.717,
          -39.49799999907382,
          0.0
        ]
      }
    },
    {
      "type": "Feature",
      "properties": {
        "Name": "Parinacota",
        "lon": -69.143,
        "lat": -18.164,
        "Monit": "Sí",
        "name": "Parinacota"
      },
      "geometry": {
        "type": "Point",
        "coordinates": [
          -69.143,
          -18.16399999944047,
          0.0
        ]
      }
    },
    {
      "type": "Feature",
      "properties": {
        "Name": "Planchón - Peteroa",
        "lon": -70.574,
        "lat": -35.241,
        "Monit": "Sí",
        "name": "Planchón - Peteroa"
      },
      "geometry": {
        "type": "Point",
        "coordinates": [
          -70.574,
          -35.24099999911047,
          0.0
        ]
      }
    },
    {
      "type": "Feature",
      "properties": {
        "Name": "Hornopirén",
        "lon": -72.431,
        "lat": -41.876,
        "Monit": "Sí",
        "name": "Hornopirén"
      },
      "geometry": {
        "type": "Point",
        "coordinates": [
          -72.431,
          -41.8759999990622,
          0.0
        ]
      }
    },
    {
      "type": "Feature",
      "properties": {
        "Name": "Lanín",
        "lon": -71.501,
        "lat": -39.639,
        "Monit": "Sí",
        "name": "Lanín"
      },
      "geometry": {
        "type": "Point",
        "coordinates": [
          -71.501,
          -39.63899999907294,
          0.0
        ]
      }
    },
    {
      "type": "Feature",
      "properties": {
        "Name": "Complejo Antillanca",
        "lon": -72.155,
        "lat": -40.776,
        "Monit": "Sí",
        "name": "Complejo Antillanca"
      },
      "geometry": {
        "type": "Point",
        "coordinates": [
          -72.155,
          -40.77599999906677,
          0.0
        ]
      }
    },
    {
      "type": "Feature",
      "properties": {
        "Name": "Laguna del Maule",
        "lon": -70.507,
        "lat": -36.058,
        "Monit": "Sí",
        "name": "Laguna del Maule"
      },
      "geometry": {
        "type": "Point",
        "coordinates": [
          -70.507,
          -36.05799999910189,
          0.0
        ]
      }
    },
    {
      "type": "Feature",
      "properties": {
        "Name": "Melimoyu",
        "lon": -72.868,
        "lat": -44.072,
        "Monit": "Sí",
        "name": "Melimoyu"
      },
      "geometry": {
        "type": "Point",
        "coordinates": [
          -72.868,
          -44.07199999905721,
          0.0
        ]
      }
    },
    {
      "type": "Feature",
      "properties": {
        "Name": "Tupungatito",
        "lon": -69.802,
        "lat": -33.401,
        "Monit": "Sí",
        "name": "Tupungatito"
      },
      "geometry": {
        "type": "Point",
        "coordinates": [
          -69.802,
          -33.40099999913246,
          0.0
        ]
      }
    },
    {
      "type": "Feature",
      "properties": {
        "Name": "Guallatiri",
        "lon": -69.089,
        "lat": -18.423,
        "Monit": "Sí",
        "name": "Guallatiri"
      },
      "geometry": {
        "type": "Point",
        "coordinates": [
          -69.089,
          -18.42299999943361,
          0.0
        ]
      }
    },
    {
      "type": "Feature",
      "properties": {
        "Name": "San José",
        "lon": -69.894,
        "lat": -33.79,
        "Monit": "Sí",
        "name": "San José"
      },
      "geometry": {
        "type": "Point",
        "coordinates": [
          -69.894,
          -33.7899999991275,
          0.0
        ]
      }
    },
    {
      "type": "Feature",
      "properties": {
        "Name": "Monte Burney",
        "lon": -73.379,
        "lat": -52.326,
        "Monit": "Sí",
        "name": "Monte Burney"
      },
      "geometry": {
        "type": "Point",
        "coordinates": [
          -73.379,
          -52.32599999908782,
          0.0
        ]
      }
    },
    {
      "type": "Feature",
      "properties": {
        "Name": "Taapaca",
        "lon": -69.509,
        "lat": -18.112,
        "Monit": "Sí",
        "name": "Taapaca"
      },
      "geometry": {
        "type": "Point",
        "coordinates": [
          -69.509,
          -18.11199999944185,
          0.0
        ]
      }
    },
    {
      "type": "Feature",
      "properties": {
        "Name": "Huequi",
        "lon": -72.579,
        "lat": -42.379,
        "Monit": "Sí",
        "name": "Huequi"
      },
      "geometry": {
        "type": "Point",
        "coordinates": [
          -72.579,
          -42.37899999906055,
          0.0
        ]
      }
    },
    {
      "type": "Feature",
      "properties": {
        "Name": "Mentolat",
        "lon": -73.079,
        "lat": -44.695,
        "Monit": "Sí",
        "name": "Mentolat"
      },
      "geometry": {
        "type": "Point",
        "coordinates": [
          -73.079,
          -44.6949999990568,
          0.0
        ]
      }
    },
    {
      "type": "Feature",
      "properties": {
        "Name": "Nevado de Longaví",
        "lon": -71.164,
        "lat": -36.199,
        "Monit": "Sí",
        "name": "Nevado de Longaví"
      },
      "geometry": {
        "type": "Point",
        "coordinates": [
          -71.164,
          -36.19899999910048,
          0.0
        ]
      }
    },
    {
      "type": "Feature",
      "properties": {
        "Name": "San Pedro",
        "lon": -68.391,
        "lat": -21.888,
        "Monit": "Sí",
        "name": "San Pedro"
      },
      "geometry": {
        "type": "Point",
        "coordinates": [
          -68.391,
          -21.88799999934664,
          0.0
        ]
      }
    },
    {
      "type": "Feature",
      "properties": {
        "Name": "Macá",
        "lon": -73.164,
        "lat": -45.104,
        "Monit": "Sí",
        "name": "Macá"
      },
      "geometry": {
        "type": "Point",
        "coordinates": [
          -73.164,
          -45.10399999905677,
          0.0
        ]
      }
    },
    {
      "type": "Feature",
      "properties": {
        "Name": "Irruputuncu",
        "lon": -68.56,
        "lat": -20.732,
        "Monit": "Sí",
        "name": "Irruputuncu"
      },
      "geometry": {
        "type": "Point",
        "coordinates": [
          -68.56,
          -20.73199999937465,
          0.0
        ]
      }
    },
    {
      "type": "Feature",
      "properties": {
        "Name": "Corcovado",
        "lon": -72.794,
        "lat": -43.194,
        "Monit": "Sí",
        "name": "Corcovado"
      },
      "geometry": {
        "type": "Point",
        "coordinates": [
          -72.794,
          -43.19399999905854,
          0.0
        ]
      }
    },
    {
      "type": "Feature",
      "properties": {
        "Name": "Tatara-San Pedro",
        "lon": -70.855,
        "lat": -35.992,
        "Monit": "Sí",
        "name": "Tatara-San Pedro"
      },
      "geometry": {
        "type": "Point",
        "coordinates": [
          -70.855,
          -35.99199999910255,
          0.0
        ]
      }
    },
    {
      "type": "Feature",
      "properties": {
        "Name": "Tinguiririca",
        "lon": -70.34,
        "lat": -34.817,
        "Monit": "Sí",
        "name": "Tinguiririca"
      },
      "geometry": {
        "type": "Point",
        "coordinates": [
          -70.34,
          -34.81699999911521,
          0.0
        ]
      }
    },
    {
      "type": "Feature",
      "properties": {
        "Name": "Isluga",
        "lon": -68.82,
        "lat": -19.155,
        "Monit": "Sí",
        "name": "Isluga"
      },
      "geometry": {
        "type": "Point",
        "coordinates": [
          -68.82,
          -19.15499999941451,
          0.0
        ]
      }
    },
    {
      "type": "Feature",
      "properties": {
        "Name": "Ollagüe",
        "lon": -68.18,
        "lat": -21.306,
        "Monit": "Sí",
        "name": "Ollagüe"
      },
      "geometry": {
        "type": "Point",
        "coordinates": [
          -68.18,
          -21.30599999936062,
          0.0
        ]
      }
    },
    {
      "type": "Feature",
      "properties": {
        "Name": "Cay",
        "lon": -72.988,
        "lat": -45.058,
        "Monit": "Sí",
        "name": "Cay"
      },
      "geometry": {
        "type": "Point",
        "coordinates": [
          -72.988,
          -45.05799999905678,
          0.0
        ]
      }
    }
  ]
}